[
  {
    "name": "Château de Pau",
    "city": "Pau",
    "country": "France",
    "pos": {"lat": 43.29477, "lng": -0.37556}
  },
  {
    "name": "Boulevard des Pyrenées",
    "city": "Pau",
    "country": "France",
    "pos": {"lat": 43.293175, "lng": -0.371016}
  },
  {
    "name": "Les Sardines",
    "city": "Pau",
    "country": "France",
    "pos": {"lat": 43.294967, "lng": -0.3677953}
  },
  {
    "name": "Georgio Maître Artisan Glacier Pau",
    "city": "Pau",
    "country": "France",
    "pos": {"lat": 43.2933742, "lng": -0.3679612}
  },
  {
    "name": "Parc Beaumont",
    "city": "Pau",
    "country": "France",
    "pos": {"lat": 43.295674, "lng": -0.3626001}
  },
  {
    "name": "Les Gourmandises de Fébus",
    "city": "Pau",
    "country": "France",
    "pos": {"lat": 43.2994178, "lng": -0.3714134}
  },
  {
    "name": "Patisserie Saint André Letendart",
    "city": "Pau",
    "country": "France",
    "pos": {"lat": 43.2984225, "lng": -0.3661316}
  },
  {
    "name": "Grand Prix de Pau",
    "city": "Pau",
    "country": "France",
    "pos": {"lat": 43.2938829, "lng": -0.3691665}
  },
  {
    "name": "Chocolaterie de la Couronne",
    "city": "Pau",
    "country": "France",
    "pos": {"lat": 43.2953914, "lng": -0.3703866}
  }
]
